[
  {
    "business_id": "viivlh_KJkiDVxhIdZnV8Q",
    "name": "Club Red",
    "address": "1306 W University Dr",
    "city": "Mesa",
    "state": "AZ",
    "postal_code": "85201",
    "latitude": 33.4221642,
    "longitude": -111.859035,
    "stars": 2.5,
    "review_count": 64,
    "is_open": 1,
    "attributes": {
      "BusinessAcceptsBitcoin": "False",
      "Ambience": "{'romantic': False, 'intimate': False, 'classy': False, 'hipster': False, 'divey': True, 'touristy': False, 'trendy': False, 'upscale': False, 'casual': False}",
      "AgesAllowed": "u'allages'",
      "Alcohol": "u'full_bar'",
      "Smoking": "u'outdoor'",
      "GoodForKids": "False",
      "HappyHour": "False",
      "RestaurantsPriceRange2": "2",
      "HasTV": "False",
      "BusinessAcceptsCreditCards": "True",
      "NoiseLevel": "'very_loud'",
      "BusinessParking": "{'garage': False, 'street': False, 'validated': False, 'lot': True, 'valet': False}",
      "BestNights": "{'monday': False, 'tuesday': False, 'friday': True, 'wednesday': False, 'thursday': False, 'sunday': False, 'saturday': False}",
      "WheelchairAccessible": "True",
      "RestaurantsGoodForGroups": "True",
      "BikeParking": "True",
      "CoatCheck": "False",
      "Music": "{'dj': False, 'background_music': False, 'no_music': False, 'jukebox': False, 'live': True, 'video': False, 'karaoke': False}",
      "OutdoorSeating": "False",
      "GoodForDancing": "True"
    },
    "categories": "Arts & Entertainment, Dance Clubs, Nightlife, Music Venues",
    "hours": null
  },
  {
    "business_id": "IeJWawvw4oAb9EjAP-W5hA",
    "name": "Saxby's Coffee",
    "address": "8520 Maryland Pkwy",
    "city": "Las Vegas",
    "state": "NV",
    "postal_code": "89123",
    "latitude": 36.034795,
    "longitude": -115.1360542,
    "stars": 4.5,
    "review_count": 17,
    "is_open": 0,
    "attributes": {
      "OutdoorSeating": "True",
      "BusinessAcceptsCreditCards": "True",
      "RestaurantsPriceRange2": "1",
      "BusinessParking": "{'garage': False, 'street': False, 'validated': False, 'lot': True, 'valet': False}",
      "WiFi": "'free'"
    },
    "categories": "Coffee & Tea, Food",
    "hours": null
  },
  {
    "business_id": "YILyHegzhy1vlc_LNVfObw",
    "name": "Bottiglia Enoteca",
    "address": "2300 Paseo Verde Pkwy",
    "city": "Las Vegas",
    "state": "NV",
    "postal_code": "89052",
    "latitude": 36.020264,
    "longitude": -115.088561,
    "stars": 4.0,
    "review_count": 575,
    "is_open": 1,
    "attributes": {
      "WiFi": "u'free'",
      "RestaurantsGoodForGroups": "True",
      "BusinessAcceptsCreditCards": "True",
      "Caters": "False",
      "GoodForKids": "True",
      "RestaurantsAttire": "u'casual'",
      "NoiseLevel": "u'average'",
      "RestaurantsTakeOut": "False",
      "WheelchairAccessible": "True",
      "CoatCheck": "False",
      "BusinessParking": "{'garage': True, 'street': False, 'validated': False, 'lot': False, 'valet': True}",
      "BikeParking": "True",
      "OutdoorSeating": "True",
      "DogsAllowed": "False",
      "RestaurantsDelivery": "False",
      "RestaurantsPriceRange2": "2",
      "GoodForDancing": "False",
      "RestaurantsTableService": "True",
      "HasTV": "True",
      "Smoking": "u'no'",
      "Music": "{'dj': False, 'background_music': False, 'no_music': False, 'jukebox': False, 'live': False, 'video': False, 'karaoke': False}",
      "GoodForMeal": "{'dessert': True, 'latenight': False, 'lunch': False, 'dinner': True, 'brunch': False, 'breakfast': False}",
      "RestaurantsReservations": "True",
      "BestNights": "{'monday': False, 'tuesday': False, 'friday': True, 'wednesday': False, 'thursday': False, 'sunday': True, 'saturday': True}",
      "HappyHour": "True",
      "Alcohol": "u'full_bar'",
      "Ambience": "{'touristy': False, 'hipster': False, 'romantic': True, 'divey': False, 'intimate': False, 'trendy': True, 'upscale': False, 'classy': True, 'casual': True}"
    },
    "categories": "Event Planning & Services, Venues & Event Spaces, Italian, Restaurants, Bars, Wine Bars, Nightlife",
    "hours": {
      "Monday": "17:0-22:0",
      "Tuesday": "17:0-22:0",
      "Wednesday": "17:0-22:0",
      "Thursday": "17:0-22:0",
      "Friday": "17:0-22:0",
      "Saturday": "17:0-22:0",
      "Sunday": "17:0-22:0"
    }
  },
  {
    "business_id": "k1VQF6auj3RQT-QjMWtrEw",
    "name": "Artefino Art Gallery & Cafe",
    "address": "1900 Superior Ave E",
    "city": "Cleveland",
    "state": "OH",
    "postal_code": "44114",
    "latitude": 41.5067199876,
    "longitude": -81.6789556,
    "stars": 4.0,
    "review_count": 20,
    "is_open": 1,
    "attributes": {
      "RestaurantsGoodForGroups": "True",
      "RestaurantsDelivery": "False",
      "GoodForMeal": "{'dessert': False, 'latenight': False, 'lunch': True, 'dinner': False, 'brunch': False, 'breakfast': True}",
      "BusinessAcceptsCreditCards": "True",
      "GoodForKids": "True",
      "RestaurantsReservations": "False",
      "Ambience": "{'romantic': False, 'intimate': False, 'classy': False, 'hipster': True, 'divey': False, 'touristy': False, 'trendy': False, 'upscale': False, 'casual': True}",
      "RestaurantsPriceRange2": "1",
      "BikeParking": "True",
      "OutdoorSeating": "False",
      "ByAppointmentOnly": "False",
      "HasTV": "False",
      "RestaurantsTakeOut": "True",
      "NoiseLevel": "u'average'",
      "BusinessParking": "{'garage': False, 'street': True, 'validated': False, 'lot': False, 'valet': False}",
      "RestaurantsAttire": "u'casual'",
      "Alcohol": "u'none'",
      "WiFi": "u'free'",
      "Caters": "True"
    },
    "categories": "Coffee & Tea, Food, Breakfast & Brunch, Restaurants, Arts & Entertainment, Shopping, Art Galleries",
    "hours": {
      "Monday": "7:0-16:0",
      "Tuesday": "7:0-16:0",
      "Wednesday": "7:0-16:0",
      "Thursday": "7:0-16:0",
      "Friday": "7:0-16:0",
      "Saturday": "10:0-14:0"
    }
  },
  {
    "business_id": "rBc22J8NWwN9enF-IQNrTg",
    "name": "Peters Township Public Library",
    "address": "616 E McMurray Rd",
    "city": "McMurray",
    "state": "PA",
    "postal_code": "15367",
    "latitude": 40.2804649,
    "longitude": -80.0809927,
    "stars": 4.5,
    "review_count": 3,
    "is_open": 1,
    "attributes": { "WiFi": "u'free'" },
    "categories": "Libraries, Public Services & Government",
    "hours": {
      "Monday": "0:0-0:0",
      "Tuesday": "9:0-21:0",
      "Wednesday": "9:0-21:0",
      "Thursday": "9:0-21:0",
      "Friday": "9:0-17:0",
      "Saturday": "9:0-16:0",
      "Sunday": "12:0-16:0"
    }
  },
  {
    "business_id": "bJ44rSxMNTAAF_WGI_jDEw",
    "name": "AQUA e VINO",
    "address": "4219 Providence Rd, Ste 3",
    "city": "Charlotte",
    "state": "NC",
    "postal_code": "28211",
    "latitude": 35.156937,
    "longitude": -80.7944918,
    "stars": 4.5,
    "review_count": 48,
    "is_open": 1,
    "attributes": {
      "BusinessAcceptsBitcoin": "False",
      "RestaurantsTableService": "True",
      "WiFi": "u'no'",
      "RestaurantsGoodForGroups": "True",
      "Caters": "False",
      "BusinessParking": "{'garage': False, 'street': False, 'validated': False, 'lot': True, 'valet': False}",
      "RestaurantsDelivery": "False",
      "BikeParking": "False",
      "RestaurantsAttire": "'dressy'",
      "HasTV": "False",
      "RestaurantsReservations": "True",
      "RestaurantsTakeOut": "False",
      "WheelchairAccessible": "True",
      "BusinessAcceptsCreditCards": "True",
      "DogsAllowed": "False",
      "OutdoorSeating": "True",
      "Alcohol": "u'full_bar'",
      "RestaurantsPriceRange2": "3",
      "Ambience": "{'touristy': False, 'hipster': False, 'romantic': False, 'divey': False, 'intimate': True, 'trendy': False, 'upscale': True, 'classy': False, 'casual': False}",
      "GoodForMeal": "{'dessert': False, 'latenight': False, 'lunch': False, 'dinner': False, 'brunch': False, 'breakfast': False}",
      "NoiseLevel": "u'average'",
      "GoodForKids": "False"
    },
    "categories": "Italian, Restaurants",
    "hours": {
      "Tuesday": "17:0-22:0",
      "Wednesday": "17:0-22:0",
      "Thursday": "17:0-22:0",
      "Friday": "17:0-23:0",
      "Saturday": "17:0-23:0"
    }
  },
  {
    "business_id": "3Dv-WQpSmdKhrDKiX9iOkA",
    "name": "La Cage Aux Sports",
    "address": "114 rue St-Paul est",
    "city": "Montr√©al",
    "state": "QC",
    "postal_code": "H2Y 1G6",
    "latitude": 45.50679,
    "longitude": -73.552638,
    "stars": 3.0,
    "review_count": 79,
    "is_open": 1,
    "attributes": {
      "RestaurantsReservations": "True",
      "RestaurantsGoodForGroups": "True",
      "Ambience": "{'touristy': True, 'hipster': False, 'romantic': False, 'intimate': False, 'trendy': False, 'upscale': False, 'classy': False, 'casual': True}",
      "RestaurantsPriceRange2": "2",
      "RestaurantsDelivery": "False",
      "OutdoorSeating": "True",
      "GoodForMeal": "{'dessert': False, 'latenight': False, 'lunch': True, 'dinner': False, 'brunch': False, 'breakfast': False}",
      "RestaurantsTakeOut": "True",
      "WiFi": "u'free'",
      "NoiseLevel": "u'loud'",
      "GoodForKids": "True",
      "RestaurantsAttire": "u'casual'",
      "Alcohol": "u'full_bar'",
      "Caters": "False",
      "HasTV": "True",
      "BusinessParking": "{'garage': False, 'street': True, 'validated': False, 'lot': False, 'valet': False}",
      "BikeParking": "False"
    },
    "categories": "Burgers, Restaurants, Chicken Wings, Sandwiches",
    "hours": {
      "Monday": "11:0-22:0",
      "Tuesday": "11:0-22:0",
      "Wednesday": "11:0-22:0",
      "Thursday": "11:0-0:0",
      "Friday": "11:0-0:0",
      "Saturday": "11:0-0:0",
      "Sunday": "11:0-21:0"
    }
  },
  {
    "business_id": "IeJWawvw4oAb9EjAP-W5hA",
    "name": "MutarFuchcier's Bar",
    "address": "8520 Maryland Pkwy",
    "city": "Las Vegas",
    "state": "NV",
    "postal_code": "89123",
    "latitude": 36.034795,
    "longitude": -115.1360542,
    "stars": 4.5,
    "review_count": 17,
    "is_open": 0,
    "attributes": {
      "OutdoorSeating": "True",
      "BusinessAcceptsCreditCards": "True",
      "RestaurantsPriceRange2": "1",
      "BusinessParking": "{'garage': False, 'street': False, 'validated': False, 'lot': True, 'valet': False}",
      "WiFi": "'free'"
    },
    "categories": "Coffee & Tea, Food",
    "hours": null
  },
  {
    "name": "Tocaya Organica",
    "address": "12150 Millennium, #101",
    "city": "Los Angeles",
    "state": "CA",
    "postal_code": "90094",
    "attributes": {
      "Ambience": "{'exotic': True, 'touristy': True}"
    },
    "categories": "Mexican, Restaurants, Organic"
  },
  {
    "name": "Raffaello Ristorante",
    "address": "400 S Pacific Ave",
    "city": "Los Angeles",
    "state": "CA",
    "postal_code": "90731",
    "attributes": {
      "Ambience": "{'romantic': True, 'exotic': False, 'touristy': False, 'hipster': False}"
    },
    "categories": "Italian, Restaurants, Vegetarian-Friendly"
  },
  {
    "name": "Sushi Gen",
    "address": "422 E 2nd St, Central Ave.",
    "city": "Los Angeles",
    "state": "CA",
    "postal_code": "90012",
    "attributes": {
      "Ambience": "{'romantic': False, 'exotic': True, 'touristy': False, 'hipster': False, 'peaceful': True}"
    },
    "categories": "Japanese, Asian, Sushi, Restaurants"
  },
  {
    "name": "Madeo",
    "address": "8897 Beverly Blvd",
    "city": "Los Angeles",
    "state": "CA",
    "postal_code": "90048",
    "attributes": {
      "Ambience": "{'romantic': True, 'formal': True, exotic': False, 'touristy': False, 'hipster': False}"
    },
    "categories": "Italian, Restaurants, Vegetarian-Friendly, Vegan-Options, Upscale"
  },
  {
    "name": "Melody Bar and Grill",
    "address": "9132 S Sepulveda Blvd",
    "city": "Los Angeles",
    "state": "CA",
    "postal_code": "90045",
    "attributes": {
      "Ambience": "{'romantic': False, exotic': False, 'touristy': False, 'lively': True, 'groovy': True}"
    },
    "categories": "Coffee, Bar, Pub, Cafe"
  },
  {
    "name": "Aroma Cafe",
    "address": "4360 Tujunga Ave",
    "city": "Los Angeles",
    "state": "CA",
    "postal_code": "91604",
    "attributes": {
      "Ambience": "{'lively': True, 'romantic': True, 'hipster': True}"
    },
    "categories": "Coffee, Tea, Bar, Pub, Cafe"
  },
  {
    "name": "Cafe Gratitude",
    "address": "639 N Larchmont Blvd",
    "city": "Los Angeles",
    "state": "CA",
    "postal_code": "90004",
    "attributes": {
      "Ambience": "{'lively': True, 'romantic': True, 'imaginative': True}"
    },
    "categories": "Coffee, Tea, Bar, Pub, Cafe, Vegetarian-Friendly, Vegan-Options"
  },
  {
    "name": "Javista Organic Coffee Bar",
    "address": "6707 W Sunset Blvd",
    "city": "Los Angeles",
    "state": "CA",
    "postal_code": "90028",
    "attributes": {
      "Ambience": "{'lively': True, 'romantic': True, 'hipster': True, 'imaginative: True}"
    },
    "categories": "Coffee, Tea, Organic, Bar, Pub, Cafe, Vegetarian-Friendly, Vegan-Options"
  },
  {
    "name": "Blu Jam Cafe",
    "address": "15045 Ventura Blvd",
    "city": "Los Angeles",
    "state": "CA",
    "postal_code": "91403",
    "attributes": {
      "Ambience": "{'groovy': True, 'romantic': False, 'hipster': False}"
    },
    "categories": "Coffee, Tea, Bar, Pub, Cafe, Vegetarian-Friendly, Vegan-Options"
  },
  {
    "name": "Cafe Intelligentsia",
    "address": "1331 Abbot Kinney Blvd",
    "city": "Los Angeles",
    "state": "CA",
    "postal_code": "90291",
    "attributes": {
      "Ambience": "{'imaginative': True, 'romantic': True, 'hipster': False}"
    },
    "categories": "Coffee, Tea, Bar, Pub, Cafe, Breakfast"
  },
  {
    "name": "Angel City Brewery",
    "address": "216 S Alameda St",
    "city": "Los Angeles",
    "state": "CA",
    "postal_code": "90012",
    "attributes": {
      "Ambience": "{'lively': True, 'silly': True}"
    },
    "categories": "Nightlife, Food & Drink, Pub, Bar, Club"
  },
  {
    "name": "No Vacancy",
    "address": "1727 N Hudson Ave",
    "city": "Los Angeles",
    "state": "CA",
    "postal_code": "90028",
    "attributes": {
      "Ambience": "{'lively': True, 'groovy': True}"
    },
    "categories": "Nightlife, Food & Drink, Pub, Bar, Club"
  },
  {
    "name": "Mondrian's Skybar",
    "address": "8440 W Sunset Blvd",
    "city": "Los Angeles",
    "state": "CA",
    "postal_code": "90069",
    "attributes": {
      "Ambience": "{'lively': True, 'groovy': True}"
    },
    "categories": "Nightlife, Food & Drink, Pub, Bar, Club"
  },
  {
    "name": "The Federal",
    "address": "5303 Lankershim Blvd",
    "city": "Los Angeles",
    "state": "CA",
    "postal_code": "91601",
    "attributes": {
      "Ambience": "{'peaceful': True, 'hipster': True}"
    },
    "categories": "Nightlife, Food & Drink, Pub, Bar, Club"
  },
  {
    "name": "Seven Bar Lounge",
    "address": "555 W 7th St",
    "city": "Los Angeles",
    "state": "CA",
    "postal_code": "90014",
    "attributes": {
      "Ambience": "{'romantic': True 'peaceful': True, 'silly': False}"
    },
    "categories": "Nightlife, Food & Drink, Pub, Bar, Upscale, Club"
  },
  {
    "name": "Boardner's",
    "address": "1652 N Cherokee Ave",
    "city": "Los Angeles",
    "state": "CA",
    "postal_code": "90028",
    "attributes": {
      "Ambience": "{'lively': True, 'groovy': True, 'exotic': True}"
    },
    "categories": "Nightlife, Food & Drink, Pub, Bar, Club, Shows"
  },
  {
    "name": "Black Rabbit Hose",
    "address": "1719 N Hudson Ave",
    "city": "Los Angeles",
    "state": "CA",
    "postal_code": "90028",
    "attributes": {
      "Ambience": "{'romantic': True, 'silly': False}"
    },
    "categories": "Nightlife, Food & Drink, Pub, Bar, Club, Shows"
  },
  {
    "name": "The Rooftop at the Standard  Downtown LA",
    "address": "550 S Flower St",
    "city": "Los Angeles",
    "state": "CA",
    "postal_code": "90071",
    "attributes": {
      "Ambience": "{'romantic': True, 'groovy': True}"
    },
    "categories": "Nightlife, Food & Drink, Pub, Bar, Music"
  },
  {
    "name": "Howl at the Moon",
    "address": "100 Universal City Plaza",
    "city": "Los Angeles",
    "state": "CA",
    "postal_code": "91608",
    "attributes": {
      "Ambience": "{'lively': True, 'silly': True, 'groovy': True}"
    },
    "categories": "Nightlife, Food & Drink, Pub, Bar, Music"
  },
  {
    "name": "4Play The Gentleman's Club",
    "address": "2238 Cortner Ave",
    "city": "Los Angeles",
    "state": "CA",
    "postal_code": "90064",
    "attributes": {
      "Ambience": "{'lively': True, 'touristy': True, 'romantic': True}"
    },
    "categories": "Nightlife, Nightclub, Upscale, Adult Entertainment, Strip Club"
  },
  {
    "name": "Spearmint Rhino Gentlemen's Club Los Angeles",
    "address": "2020 E Olympic Blvd",
    "city": "Los Angeles",
    "state": "CA",
    "postal_code": "90021",
    "attributes": {
      "Ambience": "{'lively': True, 'touristy': True, 'romantic': True}"
    },
    "categories": "Nightlife, Nightclub, Adult Entertainment, Strip Club"
  },
  {
    "name": "Synn Gentlemen's Club",
    "address": "365 N La Cienega Blvd",
    "city": "Los Angeles",
    "state": "CA",
    "postal_code": "90048",
    "attributes": {
      "Ambience": "{'lively': True, 'exotic': True}"
    },
    "categories": "Nightlife, Nightclub, Adult Entertainment, Strip Club"
  },
  {
    "name": "The Playpen",
    "address": "1109 S Santa Fe Ave",
    "city": "Los Angeles",
    "state": "CA",
    "postal_code": "90021",
    "attributes": {
      "Ambience": "{'lively': True, 'exotic': True}"
    },
    "categories": "Nightlife, Nightclub, Adult Entertainment, Strip Club"
  },
  {
    "name": "Blue Whale",
    "address": "123 Astronaut E S Onizuka St Ste 301",
    "city": "Los Angeles",
    "state": "CA",
    "postal_code": "90012",
    "attributes": {
      "Ambience": "{'romantic': True, 'groovy': True}"
    },
    "categories": "Nightlife, Concerts, Shows"
  },
  {
    "name": "Izakaya & Bar Fu-ga",
    "address": "111 S San Pedro St",
    "city": "Los Angeles",
    "state": "CA",
    "postal_code": "90012",
    "attributes": {
      "Ambience": "{'peaceful': True, 'exotic': True}"
    },
    "categories": "Nightlife, Restaurants, Food & Drink, Bar, Club, Japanese, Asian"
  },
  {
    "name": "The Cow's End Cafe",
    "address": "34 Washington Blvd",
    "city": "Los Angeles",
    "state": "CA",
    "postal_code": "90292",
    "attributes": {
      "Ambience": "{'romantic': True, 'peaceful': True}"
    },
    "categories": "Coffee, Tea, Cafe, Deli, Food & Drink"
  },
  {
    "name": "Menotti's Coffee Shop",
    "address": "56 Windward Ave",
    "city": "Los Angeles",
    "state": "CA",
    "postal_code": "90291",
    "attributes": {
      "Ambience": "{'groovy': True, 'hipster': True}"
    },
    "categories": "Coffee, Tea, Cafe, Food & Drink"
  },
  {
    "name": "Rise N Grind",
    "address": "6501 Hollywood Blvd",
    "city": "Los Angeles",
    "state": "CA",
    "postal_code": "90028",
    "attributes": {
      "Ambience": "{'imaginative': True, 'peaceful': True}"
    },
    "categories": "Coffee, Tea, Cafe, Food & Drink, Vegetarian-Friendly, Vegan-Options"
  }
]
